{
  "places": [
    {
      "id": "place_001",
      "name": "Prato della Valle",
      "description": "Una delle piazze più grandi d'Europa, con l'isola Memmia circondata da statue e canali. Punto di ritrovo storico e luogo ideale per iniziare un percorso a piedi in centro.",
      "category": "history",
      "latitude": 45.3983,
      "longitude": 11.8765,
      "points": 10,
      "averageVisitTimeMinutes": 20,
      "imagePath": "assets/images/prato_della_valle.jpg",
      "isVisited": false,
      "averageRating": 4.6
    },
    {
      "id": "place_002",
      "name": "Basilica di Sant'Antonio",
      "description": "Basilica pontificia meta di pellegrinaggio, con opere di Donatello e la tomba di Sant'Antonio. Una delle tappe culturali più significative di Padova.",
      "category": "culture",
      "latitude": 45.4014,
      "longitude": 11.8801,
      "points": 15,
      "averageVisitTimeMinutes": 35,
      "imagePath": "assets/images/basilica_sant_antonio.jpg",
      "isVisited": false,
      "averageRating": 4.8
    },
     {
      "id": "place_003",
      "name": "Cappella degli Scrovegni",
      "description": "Capolavoro di Giotto con uno dei più importanti cicli di affreschi della storia dell'arte mondiale.",
      "category": "art",
      "latitude": 45.4090,
      "longitude": 11.8776,
      "points": 20,
      "averageVisitTimeMinutes": 40,
      "imagePath": "assets/images/cappella_scrovegni.jpg",
      "isVisited": false,
      "averageRating": 5.0
    },
    {
      "id": "place_004",
      "name": "Palazzo della Ragione",
      "description": "Antico palazzo medievale del centro storico, famoso per il grande Salone affrescato e il mercato storico sottostante.",
      "category": "history",
      "latitude": 45.4075,
      "longitude": 11.8760,
      "points": 15,
      "averageVisitTimeMinutes": 35,
      "imagePath": "assets/images/palazzo_ragione.jpg",
      "isVisited": false,
      "averageRating": 4.7
    },
    {
      "id": "place_005",
      "name": "Università di Padova - Palazzo Bo",
      "description": "Sede storica dell'Università di Padova fondata nel 1222, con il Teatro Anatomico e la cattedra di Galileo Galilei.",
      "category": "culture",
      "latitude": 45.4064,
      "longitude": 11.8778,
      "points": 15,
      "averageVisitTimeMinutes": 50,
      "imagePath": "assets/images/palazzo_bo.jpg",
      "isVisited": false,
      "averageRating": 4.8
    },
    {
      "id": "place_006",
      "name": "Orto Botanico di Padova",
      "description": "Il più antico orto botanico universitario al mondo ancora nella sua sede originale, patrimonio UNESCO.",
      "category": "nature",
      "latitude": 45.4025,
      "longitude": 11.8813,
      "points": 15,
      "averageVisitTimeMinutes": 60,
      "imagePath": "assets/images/orto_botanico.jpg",
      "isVisited": false,
      "averageRating": 4.7
    },
    {
      "id": "place_007",
      "name": "Duomo di Padova",
      "description": "Cattedrale della città dedicata a Santa Maria Assunta, con il vicino Battistero decorato con importanti affreschi medievali.",
      "category": "culture",
      "latitude": 45.4070,
      "longitude": 11.8735,
      "points": 10,
      "averageVisitTimeMinutes": 30,
      "imagePath": "assets/images/duomo_padova.jpg",
      "isVisited": false,
      "averageRating": 4.6
    },
    {
      "id": "place_008",
      "name": "Battistero del Duomo",
      "description": "Straordinario edificio medievale con il ciclo di affreschi di Giusto de' Menabuoi, tra i più importanti del Trecento italiano.",
      "category": "art",
      "latitude": 45.4068,
      "longitude": 11.8730,
      "points": 15,
      "averageVisitTimeMinutes": 35,
      "imagePath": "assets/images/battistero_padova.jpg",
      "isVisited": false,
      "averageRating": 4.8
    },
    {
      "id": "place_009",
      "name": "Specola di Padova",
      "description": "Antico osservatorio astronomico ospitato nella torre del Castello Carrarese, simbolo della storia scientifica padovana.",
      "category": "history",
      "latitude": 45.4019,
      "longitude": 11.8683,
      "points": 10,
      "averageVisitTimeMinutes": 45,
      "imagePath": "assets/images/specola_padova.jpg",
      "isVisited": false,
      "averageRating": 4.5
    },
    {
      "id": "place_010",
      "name": "Mura e Bastioni di Padova",
      "description": "Sistema difensivo rinascimentale che racconta la storia militare della città.",
      "category": "history",
      "latitude": 45.4140,
      "longitude": 11.8750,
      "points": 10,
      "averageVisitTimeMinutes": 90,
      "imagePath": "assets/images/mura_padova.jpg",
      "isVisited": false,
      "averageRating": 4.5
    },
    {
      "id": "place_011",
      "name": "Caffè Pedrocchi",
      "description": "Lo storico caffè aperto nel 1831, simbolo di Padova e luogo d'incontro di studenti, artisti e intellettuali. Conosciuto come il 'Caffè senza porte' per la sua apertura continua nell'Ottocento.",
      "category": "culture",
      "latitude": 45.4072,
      "longitude": 11.8770,
      "points": 15,
      "averageVisitTimeMinutes": 35,
      "imagePath": "assets/images/caffe_pedrocchi.jpg",
      "isVisited": false,
      "averageRating": 4.8
    },
    {
      "id": "place_012",
      "name": "Ghetto Ebraico",
     "description": "Un quartiere caratteristico nel cuore di Padova con strade strette, portici antichi, botteghe storiche e locali tradizionali. Un percorso ideale per scoprire la parte più autentica della città.",
     "category": "history",
     "latitude": 45.4069,
     "longitude": 11.8754,
     "points": 10,
     "averageVisitTimeMinutes": 45,
     "imagePath": "assets/images/ghetto_padova.jpg",
     "isVisited": false,
    "averageRating": 4.7
  },
  {
     "id": "place_013",
     "name": "Piazza delle Erbe e Piazza della Frutta",
     "description": "Le piazze storiche del centro medievale, animate da mercati, botteghe e locali sotto i portici del Palazzo della Ragione.",
     "category": "history",
     "latitude": 45.4076,
     "longitude": 11.8762,
     "points": 10,
     "averageVisitTimeMinutes": 40,
     "imagePath": "assets/images/piazze_padova.jpg",
     "isVisited": false,
     "averageRating": 4.8
    }
  ]
}
